,city_name,country_code,latitude,longitude,Max Temp,Humidity,Cloudiness,Wind Speed,Date
0,gornopravdinsk,ru,60.05,69.9,34.41,96,100,10.22,1619812302
1,thompson,ca,55.75,-97.866667,42.8,33,90,6.91,1619812302
2,yellowknife,ca,62.45,-114.35,33.01,93,90,11.5,1619812302
3,rikitea,pf,-23.1202778,-134.9691667,78.87,77,77,20.09,1619812303
4,palabuhanratu,id,-6.9875,106.551389,80.01,94,47,2.73,1619812303
5,mataura,pf,-23.3666667,-149.4666667,72.86,75,100,16.17,1619812303
6,ushuaia,ar,-54.8,-68.3,41,81,75,1.01,1619812206
7,sogne,no,58.083333,7.816667,45,61,90,3.44,1619812303
8,punta arenas,cl,-53.15,-70.916667,42.8,93,90,8.05,1619812304
9,busselton,au,-33.652489,115.345497,51.01,98,98,3.78,1619812304
10,ambulu,id,-8.3504,113.6069,74.12,87,62,2.59,1619812304
11,nanortalik,gl,60.1166667,-45.2166667,41.81,65,10,5.28,1619812305
12,dongning,cn,44.062188,131.120752,40.51,49,99,2.26,1619812305
13,praya,id,-8.705362,116.270357,73.4,88,20,1.99,1619812305
14,teya,ru,60.377778,92.626667,36.28,95,100,10.69,1619812305
15,khatanga,ru,71.966667,102.5,29.91,94,99,8.43,1619812306
16,hobart,au,-42.883209,147.331665,48.2,81,12,9.22,1619812306
17,hermanus,za,-34.418696,19.234464,57.99,71,0,5.99,1619812306
18,alamor,ec,-4.0333333,-80.0333333,80.6,74,90,5.75,1619812306
19,mitsamiouli,km,-11.3847222,43.2844444,82.18,76,8,3.27,1619812307
20,grand river south east,mu,-20.2861111,57.7758333,78.01,83,20,11.5,1619812307
21,axim,gh,4.8683333,-2.2413889,82,78,76,6.78,1619812307
22,hami,cn,42.8,93.45,72.7,13,32,4.38,1619812308
23,namibe,ao,-15.196111,12.152222,75.25,77,28,5.46,1619812308
24,illoqqortoormiut,gl,70.4833333,-21.9666667,28.85,89,99,1.39,1619812308
25,kapaa,us,22.0783333,-159.3219444,75.2,73,75,13.8,1619812308
26,alofi,nu,-19.0166667,-169.9166667,78.8,94,100,2.3,1619812309
27,narsaq,gl,77.3025,-68.8425,36.03,68,93,2.15,1619812309
28,naregal,in,15.583333,75.816667,83.8,49,0,8.12,1619812309
29,dikson,ru,73.506944,80.546389,4.15,95,75,10,1619812310
30,jamestown,sh,-15.9333333,-5.7166667,71.53,75,12,12.24,1619812310
31,tasiilaq,gl,65.6,-37.6333333,32,86,20,9.22,1619812310
32,silver city,us,32.7700000,-108.2797222,70,21,1,5.75,1619812311
33,souillac,mu,-20.5166667,57.5166667,77,83,20,11.5,1619812311
34,leninsk,ru,54.903056,59.8675,35.1,72,25,3.69,1619812311
35,nuuk,gl,64.1833333,-51.75,33.8,100,20,6.91,1619812311
36,ilulissat,gl,69.2166667,-51.1,39.2,56,20,3.44,1619812312
37,port-gentil,ga,-0.7166667,8.7833333,82.4,83,40,4.61,1619812312
38,ribeira grande,pt,38.516667,-28.7,62.6,67,75,6.91,1619812312
39,samusu,ws,-13.9666667,-171.3666667,82.67,76,9,11.36,1619812313
40,qasigiannguit,gl,68.8166667,-51.1833333,39.2,56,20,3.44,1619812313
41,bengkulu,id,-3.8,102.266667,74.97,91,92,3.8,1619812313
42,kewanee,us,41.2455556,-89.9247222,66,31,2,1.99,1619812313
43,andenes,no,69.320278,16.142778,28.4,80,75,9.22,1619812314
44,barrow,us,71.2905556,-156.7886111,19.4,93,90,3.04,1619812314
45,arraial do cabo,br,-22.966667,-42.016667,77,69,20,5.75,1619812314
46,vardo,no,70.366667,31.1,24.8,74,40,14.97,1619812315
47,jacobina,br,-11.183333,-40.516667,74.52,74,94,6.29,1619812315
48,kruisfontein,za,-34.003333,24.731417,55.99,73,0,1.99,1619812315
49,nishihara,jp,26.184167,127.755833,71.6,83,75,8.05,1619812315
50,tra vinh,vn,9.934722,106.345278,80.02,81,52,6.08,1619812316
51,castro,cl,-42.463611,-73.808333,55.99,94,90,16.11,1619812316
52,rangapara,in,26.816667,92.65,76.19,44,41,3.87,1619812316
53,new norfolk,au,-42.78075,147.059387,48,86,42,3.06,1619812316
54,yar-sale,ru,66.833333,70.833333,25.38,93,100,12.8,1619812317
55,fevralsk,ru,52.466667,130.716667,33.24,74,100,4.41,1619812317
56,chicama,pe,-7.7025,-79.4391667,68,83,40,10.36,1619812317
57,vredefort,za,-27.008048,27.364601,56.84,54,91,5.66,1619812318
58,nuevo progreso,mx,23.166667,-97.95,84.99,44,100,5.01,1619812318
59,amderma,ru,69.7576,61.6655,17.2,82,38,8.46,1619812318
60,komsomolskiy,ru,57.4637,57.1269,38.41,68,99,6.73,1619812318
61,rypefjord,no,70.633333,23.666667,26.6,68,75,19.57,1619812319
62,mar del plata,ar,-38.002278,-57.557539,70,60,0,12.66,1619812319
63,havoysund,no,71.000556,24.696111,28.4,93,90,29.93,1619812319
64,bilma,ne,18.6866667,12.9191667,88.92,4,0,6.38,1619812320
65,cidreira,br,-30.183333,-50.2,69.49,70,0,14.76,1619812320
66,hilo,us,19.7297222,-155.0900000,80.6,61,20,5.75,1619812030
67,honiara,sb,-9.4333333,159.95,77.07,80,100,5.19,1619812320
68,ouango,cf,4.3166667,22.55,73.33,78,100,2.55,1619812321
69,tilichiki,ru,60.466667,166.1,21.22,92,63,9.4,1619812321
70,sentyabrskiy,ru,45.266667,148.5,35.33,92,100,15.08,1619812321
71,tuktoyaktuk,ca,69.45,-133.066667,17.6,79,20,9.22,1619812321
72,port macquarie,au,-31.43084,152.908936,57,99,24,1.99,1619812322
73,dandong,cn,40.129167,124.394722,46.31,68,100,4.94,1619812322
74,cabo san lucas,mx,22.883333,-109.9,88,34,1,11.5,1619812322
75,soure,br,-.733333,-48.516667,78.76,81,100,9.17,1619812323
76,ponta do sol,cv,17.2,-25.1,75.2,60,20,23.02,1619812323
77,warora,in,20.233333,79,92.17,25,18,9.86,1619812323
78,formoso do araguaia,br,-11.796667,-49.466944,82.81,64,99,3.83,1619812324
79,bjornevatn,no,69.667222,29.984722,24.8,74,20,10.36,1619812324
80,hervey bay,au,-25.285,152.873,64.99,94,99,5.01,1619812324
81,belushya guba,ru,71.539238,52.332117,20.97,86,100,18.21,1619812324
82,ugoofaaru,mv,5.6666667,73.0,83.52,75,39,5.77,1619812325
83,bredasdorp,za,-34.532154,20.040308,51.8,76,0,3.44,1619812325
84,kavieng,pg,-2.5666667,150.8,82.18,75,99,6.87,1619812325
85,bluff,nz,-46.6,168.333333,39.99,93,98,3,1619812326
86,vaini,to,-21.2,-175.2,73.4,100,90,8.05,1619812326
87,vaitupu,wf,-13.2333333,-176.15,83.57,75,70,11.43,1619812326
88,talnakh,ru,69.4865,88.3972,16.05,81,15,3.31,1619812327
89,taolanaro,mg,-25.0333333,47.0,77,83,20,20.71,1619812327
90,fairbanks,us,64.8377778,-147.7163889,35.6,64,40,8.05,1619812233
91,olafsvik,is,64.883333,-23.716667,33.85,62,63,27.74,1619812327
92,marsa matruh,eg,31.35,27.2333333,69.8,64,0,4.61,1619812327
93,hobyo,so,5.3513889,48.5255556,84.4,66,14,10.42,1619812328
94,eydhafushi,mv,5.1166667,73.0333333,83.39,75,53,5.95,1619812328
95,jalu,ly,29.0333333,21.55,89.46,10,0,10.47,1619812328
96,high level,ca,58.516667,-117.133333,55.4,50,75,16.11,1619812329
97,constitucion,mx,25.036944,-111.664444,93.83,9,0,7.29,1619812329
98,atuona,pf,-9.8,-139.0333333,78.87,70,2,4.05,1619812329
99,puerto ayora,ec,-0.75,-90.3166667,82.4,69,40,13.8,1619812330
100,nemuro,jp,43.323611,145.575,38.1,77,92,25.23,1619812330
101,hibbing,us,47.4272222,-92.9375000,51.8,24,1,5.12,1619812330
102,kirakira,sb,-10.45,161.9166667,78.73,87,100,7.45,1619812330
103,longyearbyen,sj,78.2166667,15.6333333,17.6,67,75,16.11,1619812331
104,mys shmidta,ru,68.933333,-179.5,17.01,89,99,26.55,1619812331
105,marsh harbour,bs,26.55,-77.05,79.56,65,6,9.44,1619812331
106,manggar,id,-2.883333,108.266667,80.13,78,99,0.58,1619812332
107,carnarvon,au,-24.88073,113.659401,66.2,59,77,11.5,1619812332
108,mumford,gh,5.2666667,-0.75,83.55,74,100,10.25,1619812332
109,severo-yeniseyskiy,ru,60.3725,93.040833,33.19,92,100,11.86,1619812333
110,key largo,us,25.0861111,-80.4475000,89.01,80,2,8.03,1619812333
111,rocha,uy,-34.4833333,-54.3333333,66.38,70,21,4.61,1619812333
112,saskylakh,ru,71.916667,114.083333,30.97,87,100,9.22,1619812333
113,chokurdakh,ru,70.633333,147.916667,3.88,96,40,4.23,1619812334
114,ostrovnoy,ru,68.053056,39.513056,17.37,89,58,7.43,1619812334
115,albany,au,-35.003101,117.865952,53.6,82,26,6.91,1619812334
116,chuy,uy,-33.6833333,-53.45,67.14,60,12,5.28,1619812335
117,faya,td,17.9166667,19.1166667,88.65,4,0,13.53,1619812335
118,cabo rojo,us,18.0886111,-67.1461111,84,70,42,5.01,1619812335
119,ewa beach,us,21.3155556,-158.0072222,80.6,57,75,10.36,1619812336
120,east london,za,-33.011051,27.910049,61.88,73,77,12.55,1619812336
121,kaitangata,nz,-46.275,169.85,44.01,84,58,4,1619812336
122,phan thiet,vn,10.933333,108.1,78.39,85,99,6.71,1619812336
123,piracuruca,br,-3.933333,-41.7,79.2,86,96,1.12,1619812337
124,fortuna,us,40.5983333,-124.1561111,64.99,82,1,16.11,1619812337
125,guarapari,br,-20.666667,-40.5,77,69,20,13.8,1619812337
126,arawa,pg,-6.2166667,155.55,75.49,87,38,1.39,1619812338
127,waipawa,nz,-41.412222,175.515278,53.6,71,40,20.71,1619812338
128,florianopolis,br,-27.583333,-48.566667,75.2,57,0,11.5,1619812338
129,tarko-sale,ru,64.9225,77.785,32,93,100,1.01,1619812283
130,arona,es,28.098519,-16.682201,69.8,52,75,12.66,1619812339
131,viedma,ar,-40.813452,-62.996676,77.86,29,98,15.05,1619812339
132,cockburn town,bs,24.0333333,-74.5166667,78.26,66,6,6.62,1619812339
133,chalchihuites,mx,23.483333,-103.883333,76.84,19,0,26.89,1619812340
134,saint anthony,ca,51.383333,-55.6,44.6,81,90,11.5,1619812340
135,quatre cocos,mu,-20.2077778,57.7625,78.01,83,20,11.5,1619812340
136,ayia galini,gr,35.1,24.6833333,80.01,73,20,4.61,1619812341
137,lebu,cl,-37.616667,-73.65,57.38,84,100,20.65,1619812341
138,santa marinella,it,42.033333,11.85,59,75,100,5.68,1619812341
139,putnok,hu,48.3,20.433333,51.19,94,10,3.36,1619812341
140,faanui,pf,-16.4833333,-151.75,79.86,75,100,2.48,1619812342
141,halifax,ca,44.65,-63.6,45,93,100,19.57,1619812342
142,aklavik,ca,68.216667,-135,28.4,80,100,8.05,1619812342
143,magadan,ru,59.566667,150.8,30.09,89,100,2.93,1619812343
144,tsihombe,mg,-25.3,45.4833333,72.45,75,64,3.04,1619812343
145,beidao,cn,34.568611,105.893333,57.52,40,0,2.66,1619812343
146,bhag,pk,29.0415,67.8239,91.15,17,0,5.48,1619812344
147,porto walter,br,-8.261111,-72.738889,86.23,44,38,4.16,1619812344
148,isangel,vu,-19.55,169.2666667,77.13,79,100,16.2,1619812344
149,finschhafen,pg,-6.6,147.85,77.59,81,47,4.9,1619812344
150,hithadhoo,mv,-0.6,73.0833333,84,72,85,7.61,1619812345
151,ayorou,ne,14.7313889,0.9194444,95.72,11,1,7.74,1619812345
152,victoria,sc,-4.6166667,55.45,82.4,83,20,5.75,1619812345
153,sur,om,22.5666667,59.5288889,85.24,39,61,7.96,1619812346
154,kurumkan,ru,54.3,110.3,35.13,66,97,1.57,1619812346
155,ionia,us,42.9872222,-85.0711111,54,32,1,13.8,1619812346
156,airai,pw,7.3575,134.5577778,78.8,94,75,13.27,1619812346
157,zhangye,cn,38.934167,100.451667,62.33,18,92,5.26,1619812347
158,linjiang,cn,41.806944,126.907778,39.31,93,100,2.15,1619812347
159,touros,br,-5.2,-35.466667,80.6,78,75,5.75,1619812347
160,sinnamary,gf,5.3833333,-52.95,75.06,92,100,4.59,1619812348
161,codrington,ag,17.6333333,-61.8333333,82.4,61,20,12.66,1619812348
162,veliki crljeni,rs,44.4675,20.284444,68,56,0,5.75,1619812348
163,toora-khem,ru,52.4675,96.11,36.36,99,100,2.06,1619812348
164,bekhtery,ua,46.250993,32.292672,53.6,82,0,6.71,1619812349
165,bella union,uy,-30.25,-57.5833333,75.99,41,0,7.65,1619812349
166,aykhal,ru,66,111.5,27.68,98,100,4.79,1619812349
167,broken hill,au,-31.961729,141.459976,55.4,54,100,6.91,1619812350
168,siquirres,cr,10.09748,-83.506588,86,66,0,9.22,1619812091
169,mount gambier,au,-37.831799,140.77919,57.2,54,100,10.36,1619812350
170,karasburg,na,-28.0166667,18.75,58.39,30,0,7.11,1619812350
171,la cruz,cr,11.073771,-85.632716,87.8,58,20,9.22,1619812350
172,lavrentiya,ru,65.583333,-171,22.19,79,50,3.67,1619812351
173,meulaboh,id,4.1363,96.1285,77,88,53,3.89,1619812351
174,hamilton,us,46.2469444,-114.1594444,78.01,35,76,4,1619812351
175,luderitz,na,-26.6480556,15.1594444,65.01,41,0,18.03,1619812352
176,rockport,us,28.0202778,-97.0541667,78.8,83,90,19.57,1619812352
177,hay river,ca,60.85,-115.7,33.8,93,90,9.22,1619812352
178,cockburn town,tc,21.4666667,-71.1333333,82.4,61,20,11.5,1619812352
179,beyneu,kz,45.316667,55.2,63.64,20,100,12.46,1619812353
180,sao filipe,cv,14.9,-24.5166667,73.81,76,46,11.12,1619812353
181,upernavik,gl,72.7833333,-56.1666667,34.03,78,100,6.04,1619812353
182,torbay,ca,47.65,-52.733333,43,70,75,13.8,1619812354
183,denau,uz,38.2666667,67.9,68.92,44,99,0.72,1619812354
184,darovskoy,ru,58.769992,47.956424,45.68,90,100,15.64,1619812354
185,klaksvik,fo,62.2333333,-6.6,37.4,81,40,5.75,1619812354
186,pueblo,us,38.2544444,-104.6086111,79,14,1,5.75,1619812355
187,katsuura,jp,35.133333,140.3,60.8,82,20,11.5,1619812355
188,avarua,ck,-21.2077778,-159.775,78.8,83,90,9.22,1619812355
189,cayenne,gf,4.9333333,-52.3333333,82.4,78,75,9.22,1619812356
190,lake havasu city,us,34.4838889,-114.3216667,99,7,1,3.44,1619812356
191,clyde river,ca,70.45,-68.566667,24.8,100,75,3.44,1619812356
192,ancud,cl,-41.869722,-73.820278,55.99,94,90,16.11,1619812356
193,dingle,ie,52.1408333,-10.2688889,46.4,81,75,3.44,1619812357
194,lakes entrance,au,-37.878941,147.995132,53.74,59,0,4.76,1619812357
195,pacific grove,us,36.6177778,-121.9155556,60.01,67,20,11.5,1619812357
196,nizhneyansk,ru,71.433333,136.066667,21.94,99,100,3.8,1619812358
197,saint-augustin,ca,51.233333,-58.65,43.54,72,94,10.76,1619812358
198,zyryanka,ru,65.75,150.85,30.47,87,100,3.47,1619812358
199,cape town,za,-33.925839,18.423218,59,72,0,12.66,1619812344
200,nioro,ml,15.2333333,-9.5833333,98.67,17,88,6.35,1619812358
201,bathsheba,bb,13.2166667,-59.5166667,82.4,57,75,18.41,1619812359
202,port alfred,za,-33.590572,26.891037,62.53,78,53,15.19,1619812359
203,iskandar,uz,41.5538889,69.7008333,62.6,72,0,11.5,1619812359
204,yulara,au,-25.245291,130.980545,53.6,40,92,6.91,1619812360
205,lolua,tv,-5.6666667,176.1333333,83.07,73,100,7.56,1619812360
206,cochabamba,bo,-17.3833333,-66.15,78.8,18,20,3.44,1619812360
207,saint george,bm,32.3816667,-64.6780556,75.2,69,75,18.41,1619812361
208,senador jose porfirio,br,-2.583333,-51.916667,83.26,71,92,4.03,1619812361
209,tuatapere,nz,-46.133333,167.683333,39.99,93,100,3,1619812361
210,kodiak,us,57.7900000,-152.4072222,46.4,42,1,17.27,1619812362
211,cap-aux-meules,ca,47.383333,-61.866667,37.4,100,100,17.27,1619812362
212,san juan,us,18.4683333,-66.1061111,86,69,75,13.8,1619812362
213,broome,au,-17.955379,122.23922,75.2,94,90,4.92,1619812363
214,hamilton,bm,32.2941667,-64.7838889,75.2,69,75,18.41,1619812363
215,nizhneangarsk,ru,55.783333,109.55,26.29,78,98,4.5,1619812363
216,bambous virieux,mu,-20.3427778,57.7575,78.01,83,20,11.5,1619812363
217,kyzyl-suu,kg,42.3408333,77.9980556,54.16,45,100,7.92,1619812364
218,nikolskoye,ru,55.193889,165.9925,37.76,79,51,5.14,1619812364
219,norman wells,ca,65.283333,-126.85,41,42,20,4.61,1619812364
220,tzimol,mx,16.266667,-92.266667,76.8,50,99,2.59,1619812364
221,tayshet,ru,55.9342,98.0044,31.44,94,8,4.52,1619812365
222,te anau,nz,-45.416667,167.716667,38.26,94,100,0.89,1619812365
223,shasta lake,us,40.6805556,-122.3697222,82.99,29,1,3.44,1619812365
224,panukulan,ph,14.933711,121.816847,79.59,75,20,3.42,1619812366
225,poum,nc,-20.2333333,164.0166667,74.59,70,57,10.25,1619812366
226,katangli,ru,51.7,143.233333,31.39,94,100,8.66,1619812366
227,hirara,jp,24.803788,125.302222,74.44,91,100,15.61,1619812367
228,ciudad bolivar,ve,8.1222222,-63.5497222,78.85,66,100,3.31,1619812367
229,laguna,br,-28.483333,-48.783333,73,57,0,1.01,1619812367
230,barentsburg,sj,78.0666667,14.2333333,17.6,67,75,16.11,1619812367
231,port elizabeth,za,-33.917988,25.570066,59,67,40,16.11,1619812108
232,hoquiam,us,46.9811111,-123.8880556,57,94,90,12.66,1619812368
233,portland,us,41.5727778,-72.6411111,66.2,34,75,13.8,1619812368
234,san rafael,ar,-34.617717,-68.330066,72.93,36,100,13.67,1619812368
235,quartucciu,it,39.251944,9.179444,66.2,72,0,11.5,1619812369
236,marawi,sd,18.4833333,31.8166667,92.46,13,9,7.05,1619812369
237,mucuri,br,-18.083333,-39.566667,75.54,75,99,16.87,1619812369
238,sedelnikovo,ru,56.946383,75.306594,42.1,88,100,9.17,1619812369
239,taltal,cl,-25.4,-70.483333,66.6,72,99,6.89,1619812370
240,jamame,so,0.0722222,42.7505556,81.32,78,65,9.86,1619812370
241,samarai,pg,-10.6166667,150.6666667,79.29,79,97,8.52,1619812370
242,goundi,td,9.3666667,17.3666667,87.3,42,98,6.08,1619812370
243,snyder,us,32.7177778,-100.9172222,69.8,40,40,9.22,1619812371
244,esperance,au,-33.86013,121.882591,48.2,93,40,5.75,1619812371
245,bethel,us,60.7922222,-161.7558333,26.6,74,90,11.5,1619812371
246,somerset,us,37.0919444,-84.6041667,71.6,23,1,12.66,1619812372
247,minab,ir,27.1467,57.0801,77,57,75,6.91,1619812372
248,butaritari,ki,3.0833333,172.8166667,82.76,75,74,11.23,1619812372
249,araceli,ph,10.5529,119.9913,82.87,69,100,6.26,1619812373
250,salalah,om,17.0175,54.0827778,82.4,78,40,4.61,1619812373
251,koudougou,bf,12.25,-2.3666667,98.94,20,98,8.28,1619812373
252,aksarka,ru,66.560556,67.7975,13.41,94,68,5.01,1619812373
253,belmonte,br,-15.85,-38.9,78.8,65,40,8.05,1619812374
254,marshall,us,44.4469444,-95.7880556,68,20,1,12.66,1619812374
255,caravelas,br,-17.75,-39.25,73.02,86,95,13.76,1619812374
256,harper,lr,4.375,-7.7169444,81.25,76,100,5.86,1619812374
257,palaiokhora,gr,35.2333333,23.6833333,73,31,98,3,1619812375
258,lalian,pk,31.82414,72.799713,80.76,41,82,3.09,1619812375
259,kokopo,pg,-4.35,152.2666667,76.03,84,96,3.53,1619812375
260,rolla,us,37.9513889,-91.7711111,77,25,1,3.44,1619812376
261,yaksatovo,ru,46.243425,48.015141,59,51,0,8.95,1619812376
262,saint-philippe,re,-21.35,55.7666667,75.2,83,0,5.75,1619812376
263,rundu,na,-17.9333333,19.7666667,73.99,42,99,2.73,1619812376
264,ostroleka,pl,53.086206,21.575663,44.01,80,100,5.23,1619812303
265,borehamwood,gb,51.65,-.266667,46.99,66,0,6.91,1619812377
266,beloha,mg,-25.1666667,45.05,72.32,75,14,4.88,1619812377
267,tumannyy,ru,68.884722,35.694444,17.42,80,85,15.05,1619812377
268,safaga,eg,26.7333333,33.9333333,84.2,28,0,9.04,1619812377
269,tres picos,mx,15.866667,-93.533333,89.13,55,92,8.46,1619812378
270,kahului,us,20.8947222,-156.4700000,75.2,100,75,16.11,1619812378
271,opuwo,na,-18.0666667,13.85,74.17,36,96,3.56,1619812378
272,ubinskoye,ru,55.306753,79.680163,42.4,71,17,7.31,1619812379
273,toliary,mg,-23.35,43.6666667,75.04,83,0,4.27,1619812379
274,osterhofen,de,48.7,13.016667,53.01,63,83,4,1619812379
275,eldikan,ru,60.8,135.183333,31.64,98,100,2.64,1619812379
276,beringovskiy,ru,63.05,179.316667,25.07,82,100,9.22,1619812380
277,cururupu,br,-1.833333,-44.866667,80.44,81,80,3.13,1619812380
278,nkayi,cg,-4.1655556,13.2927778,76.28,92,100,1.23,1619812380
279,mpika,zm,-11.8333333,31.45,62.13,91,63,3.69,1619812380
280,miranorte,br,-9.476667,-48.480278,81.34,78,97,2.48,1619812381
281,anito,ph,12.44972,125.288608,75.9,87,100,3.18,1619812381
282,trincomalee,lk,8.5666667,81.2333333,82.67,75,98,4.9,1619812381
283,sergeyevka,kz,53.88,67.415833,42.28,58,20,10.11,1619812382
284,tiksi,ru,71.687222,128.869444,30.31,83,100,3.44,1619812382
285,urozhaynoye,ru,44.788333,44.922778,52.86,85,45,9.71,1619812382
286,bourail,nc,-21.5666667,165.4833333,68.54,71,57,3.42,1619812383
287,bubaque,gw,11.2833333,-15.8333333,78.71,71,15,20.33,1619812383
288,ambon,id,-3.695426,128.181405,81.46,76,98,3.27,1619812383
289,tamandare,br,-8.75,-35.1,79.16,77,100,10.56,1619812384
290,san cristobal,ec,-0.9166667,-89.5666667,82.4,69,40,11.5,1619812384
291,karamay,cn,45.600376,84.860142,76.23,17,4,5.26,1619812384
292,luwingu,zm,-10.2666667,29.9,64.63,92,88,3.31,1619812385
293,rio grande,br,-32.033333,-52.083333,75.2,64,0,13.8,1619812385
294,eureka,us,40.8022222,-124.1625000,62.01,78,100,5.01,1619812385
295,flin flon,ca,54.766667,-101.883333,42.8,42,90,9.22,1619812386
296,el alto,pe,-4.2641667,-81.2183333,82.4,61,0,17.27,1619812386
297,sibolga,id,1.7427,98.7792,76.5,86,100,2.75,1619812386
298,aksum,et,14.124482,38.724442,69.62,45,100,5.06,1619812386
299,paullo,it,45.416667,9.4,63,88,40,1.14,1619812387
300,hofn,is,64.25,-15.216667,35.73,92,100,15.17,1619812387
301,qaanaaq,gl,77.4894444,-69.3322222,31.87,68,92,5.84,1619812387
302,palmer,us,61.5997222,-149.1127778,42.01,60,90,4.61,1619812387
303,severo-kurilsk,ru,50.678889,156.125,35.01,94,100,20.69,1619812388
304,iqaluit,ca,63.733333,-68.5,35.6,75,75,17.27,1619812388
305,sann,pk,26.041841,68.137772,86,45,40,4.61,1619812388
306,ampanihy,mg,-24.7,44.75,70.88,71,0,6.91,1619812389
307,provideniya,ru,64.383333,-173.3,28.71,59,99,0.81,1619812389
308,the valley,ai,18.2166667,-63.05,86,61,20,14.97,1619812389
309,ashqelon,il,31.669256,34.57149,73,49,0,4.61,1619812389
310,okha,ru,53.573889,142.947778,30.85,87,100,7.67,1619812390
311,batagay,ru,67.633333,134.633333,27.5,96,100,1.95,1619812390
312,luganville,vu,-15.5333333,167.1666667,78.84,83,94,9.91,1619812390
313,bairiki,ki,1.3166667,172.9666667,82.4,78,75,5.75,1619812391
314,launceston,au,-41.438759,147.134674,50,93,10,0.18,1619812391
315,sampit,id,-2.533333,112.95,73.4,98,100,0.6,1619812391
316,sola,vu,-13.8833333,167.55,80.96,74,37,17.65,1619812392
317,jambi,id,-1.6,103.616667,73.09,98,100,2.17,1619812392
318,rungata,ki,-1.35,176.4333333,82.22,76,8,8.66,1619812392
319,georgetown,sh,-7.9333333,-14.4166667,79.66,65,45,13.09,1619812392
320,avera,pf,-22.45,-151.35,75.52,83,100,13.6,1619812393
321,wapi pathum,th,15.845229,103.376785,80.01,99,100,4.18,1619812393
322,svetlyy,ru,50.818333,60.851944,46.85,61,21,5.82,1619812393
323,saldanha,za,-33.01167,17.944202,57.2,67,0,10.36,1619812394
324,mahebourg,mu,-20.4080556,57.7,77,83,20,11.5,1619812394
325,marystown,ca,47.166667,-55.166667,41.32,79,100,14.67,1619812394
326,rockingham,us,34.9391667,-79.7741667,79,27,1,9.22,1619812394
327,tessalit,ml,20.2013889,1.0088889,89.47,21,97,28.1,1619812395
328,kerema,pg,-7.9666667,145.7666667,75.15,86,99,3.13,1619812395
329,terrace,ca,54.5,-128.583333,48.2,81,90,21.85,1619812395
330,chagoda,ru,59.1371,35.2916,34.09,98,100,6.55,1619812396
331,leningradskiy,ru,69.383333,178.416667,16.92,88,100,21.83,1619812396
332,ulaangom,mn,49.9666667,92.0333333,53.22,38,62,5.84,1619812396
333,mareeba,au,-16.995001,145.423233,71.6,83,75,6.91,1619812396
334,galle,lk,6.0536111,80.2116667,79.2,83,100,1.19,1619812397
335,saquarema,br,-22.933333,-42.5,77,69,20,5.75,1619812397
336,yuli,tw,23.3333333,121.3,69.03,42,100,6.24,1619812397
337,adzope,ci,6.106944,-3.861944,79.88,77,54,5.66,1619812398
338,porbandar,in,21.633333,69.6,83.23,73,100,10.74,1619812398
339,kawalu,id,-7.3817,108.2082,72.12,95,89,2.48,1619812398
340,mabay,ph,6.057723,124.466607,78.62,85,98,5.01,1619812399
341,nicoya,cr,10.148275,-85.452013,87.55,53,80,3.22,1619812399
342,panjab,af,34.387949,67.023273,46.51,80,100,3.87,1619812399
343,maceio,br,-9.666667,-35.716667,80.6,78,40,16.11,1619812400
344,lorengau,pg,-2.0166667,147.2666667,79.9,78,100,3.04,1619812400
345,drexel heights,us,32.1411111,-111.0277778,87.01,13,1,13.8,1619812400
346,tarata,pe,-17.4744444,-70.0327778,71.6,53,0,6.91,1619812400
347,tautira,pf,-17.7333333,-149.15,82.4,78,75,9.22,1619812401
348,iaciara,br,-14.15,-46.666667,78.44,60,100,4.61,1619812401
349,valparaiso,cl,-33.047778,-71.601111,66.2,63,20,4.61,1619812119
350,vredendal,za,-31.668329,18.501192,56.35,70,0,6.15,1619812402
351,carahue,cl,-38.7,-73.166667,60.8,72,90,13.8,1619812402
352,amahai,id,-3.333333,128.916667,78.35,81,98,2.04,1619812402
353,mandalgovi,mn,45.75,106.2666667,37.89,53,100,6.64,1619812402
354,bilibino,ru,68.05,166.333333,4.5,89,32,0.6,1619812403
355,attawapiskat,ca,52.916667,-82.433333,32,47,40,19.57,1619812403
356,hereford,us,34.8150000,-102.3972222,75.2,19,1,11.5,1619812403
357,zyryanovsk,kz,49.738611,84.271944,52.88,83,100,4.7,1619812404
358,rio gallegos,ar,-51.622613,-69.218127,46.4,81,20,8.05,1619812404
359,simao,cn,22.788627,100.974807,61.83,94,72,2.17,1619812404
360,luwero,ug,0.8491667,32.4730556,63.21,97,100,2.98,1619812405
361,beltangadi,in,13.983333,75.3,73.11,83,5,3.62,1619812405
362,mhango,tz,-3.2833333,32.85,66.85,83,84,5.17,1619812405
363,sabang,id,5.893333,95.321389,82.56,73,95,4.05,1619812405
364,abu dhabi,ae,24.466667,54.366667,82.4,65,0,5.75,1619812226
365,quelimane,mz,-17.8786111,36.8883333,80.6,89,0,6.91,1619812406
366,tawau,my,4.2498,117.8871,77,94,20,3.44,1619812406
367,enid,us,36.3955556,-97.8780556,77,41,1,9.22,1619812406
368,bodden town,ky,19.2833333,-81.25,86,70,20,9.22,1619812407
369,sambava,mg,-14.2666667,50.1666667,75.96,90,8,8.23,1619812407
370,kota tinggi,my,1.7381,103.8999,77,94,20,1.14,1619812407
371,liberal,us,37.0430556,-100.9205556,75.2,19,1,5.75,1619812407
372,daru,pg,-9.0833333,143.2,77.67,84,98,9.19,1619812408
373,berlevag,no,70.85,29.1,24.8,86,20,4.61,1619812408
374,lukovetskiy,ru,64.2956,41.9211,33.8,86,40,3.18,1619812408
375,coruripe,br,-10.133333,-36.166667,79.2,77,28,10.51,1619812409
376,labuhan,id,-6.3784,105.83,77.85,87,100,4.18,1619812409
377,mangrol,in,21.116667,70.116667,82.38,75,100,8.46,1619812409
378,ulladulla,au,-35.359058,150.472473,54,100,3,3.44,1619812410
379,taoudenni,ml,22.6666667,-3.9833333,77.4,56,90,34.27,1619812410
380,sao gabriel da cachoeira,br,-.133333,-67.083333,77,88,40,5.75,1619812410
381,korla,cn,41.759722,86.146944,71.24,19,0,1.61,1619812410
382,yanan,cn,36.598889,109.491667,52.14,30,4,3.87,1619812411
383,seymchan,ru,62.883333,152.433333,28.72,95,100,1.21,1619812411
384,marrakesh,ma,31.631485,-8.008281,59,63,75,2.3,1619812411
385,araouane,ml,18.9,-3.55,88.05,30,98,7.96,1619812412
386,necochea,ar,-38.547259,-58.736753,73,46,0,13,1619812412
387,pevek,ru,69.700833,170.313333,15.44,92,100,11.41,1619812412
388,qingyuan,cn,23.7,113.033333,77,78,0,4.47,1619812412
389,haines junction,ca,60.75,-137.5,46.4,42,100,11.5,1619812413
390,shambu,et,9.566667,37.1,54.68,84,96,1.63,1619812413
391,nkhotakota,mw,-12.9166667,34.3,73.54,80,22,2.82,1619812413
392,egvekinot,ru,66.316667,-179.166667,19.78,91,99,0.43,1619812413
393,uyutne,ua,45.197689,33.297956,52,75,10,8.39,1619812414
394,kracheh,kh,12.4833333,106.0166667,77.7,86,96,2.01,1619812414
395,cairns,au,-16.92304,145.766251,71.6,83,75,6.91,1619812414
396,doume,cm,4.2333333,13.45,76.17,73,87,1.32,1619812415
397,port lincoln,au,-34.72625,135.87442,67.57,42,100,11.45,1619812415
398,ossora,ru,59.235278,163.071944,30.36,84,56,3.58,1619812415
399,luziania,br,-16.25,-47.933333,77,65,40,11.5,1619812415
400,notodden,no,59.566667,9.283333,42.01,51,58,1.01,1619812416
401,krasnoselkup,ru,65.7,82.466667,33.1,97,100,13.62,1619812416
402,pryazha,ru,61.692584,33.621586,37.4,60,26,4.47,1619812416
403,bonavista,ca,48.633333,-53.1,51.8,62,100,4.61,1619812417
404,saint-georges,gf,3.9,-51.8,84.2,70,75,4.61,1619812417
405,san andres,co,12.584722,-81.700556,86,62,40,10.36,1619812417
406,mullaitivu,lk,9.2666667,80.8166667,81.93,79,100,4.9,1619812417
407,los llanos de aridane,es,28.658507,-17.918211,66.2,63,75,17.27,1619812418
408,zverinogolovskoye,ru,54.458611,64.854167,40.66,53,3,7.65,1619812418
409,khonuu,ru,66.45,143.1,27.27,96,94,2.59,1619812418
410,naron,es,43.516667,-8.152778,53.01,76,40,8.05,1619812419
411,miracatu,br,-24.283333,-47.466667,69.39,72,56,4.23,1619812419
412,ballina,au,-28.86414,153.565414,62.6,100,90,4.61,1619812419
413,ecoporanga,br,-18.383333,-40.833333,73.58,67,95,10.09,1619812419
414,el balyana,eg,26.2386111,32.0030556,86,8,0,6.91,1619812420
415,poso,id,-1.3959,120.7524,78.01,80,98,3.76,1619812420
416,medina del campo,es,41.312394,-4.914133,51.8,87,75,9.22,1619812420
417,buqayq,sa,25.937103,49.677613,80.6,47,0,9.73,1619812421
418,sheridan,us,44.7972222,-106.9555556,82,19,1,3.47,1619812421
419,waingapu,id,-9.6567,120.2641,77,86,11,5.79,1619812421
420,aflu,dz,34.1088889,2.1019444,56.17,70,100,27.67,1619812421
421,san patricio,mx,19.216667,-104.7,82.4,74,20,11.5,1619812422
422,jumla,np,29.25,82.25,45.52,88,62,3.58,1619812422
423,liverpool,ca,44.033333,-64.716667,46.99,92,100,23.02,1619812422
424,changping,cn,40.218611,116.219722,42.01,93,0,4.47,1619812423
425,portobelo,pa,9.55,-79.65,78.8,83,40,6.91,1619812423
426,flinders,au,-32.79924,134.211594,69.4,35,100,16.93,1619812423
427,mackay,au,-21.15345,149.165543,66.2,88,75,9.22,1619812423
428,mungaa,tz,-4.9666667,34.8833333,60.04,95,85,6.08,1619812424
429,praia da vitoria,pt,38.733333,-27.066667,61,63,20,2.57,1619812424
430,qarqin,af,37.404464,66.074375,74.79,46,88,13.69,1619812424
431,polazna,ru,58.294584,56.405459,33.8,64,0,2.24,1619812425
432,batouri,cm,4.4333333,14.3666667,71.42,82,57,2.55,1619812425
433,durban,za,-29.857896,31.029198,64.99,68,40,11.5,1619812425
434,temaraia,ki,-0.6666667,174.45,82.89,73,100,11.48,1619812425
435,adilabad,in,19.666667,78.533333,91.27,26,12,11.56,1619812426
436,yumen,cn,39.833333,97.733333,57.07,13,100,4.18,1619812426
437,koungou,yt,-12.7336111,45.2041667,80.6,83,20,5.75,1619812426
438,maniitsoq,gl,65.4166667,-52.9,35.53,73,10,3.22,1619812427
439,agadez,ne,16.9738889,7.9908333,88.36,4,0,10.51,1619812427
440,anklam,de,53.866667,13.7,42.01,78,12,5.12,1619812427
441,port hardy,ca,50.716667,-127.5,51.8,82,75,12.66,1619812427
442,grindavik,is,63.833333,-22.433333,39.2,70,40,20.71,1619812428
443,kieta,pg,-6.2166667,155.6333333,78.3,82,32,1.25,1619812428
444,kushmurun,kz,52.450278,64.631111,45.9,55,46,7.31,1619812428
445,deputatskiy,ru,69.3,139.9,18.54,97,96,1.43,1619812429
446,igarka,ru,67.4655,86.6027,26.55,87,60,12.03,1619812429
447,hwange,zw,-18.3666667,26.4833333,72,66,76,1.57,1619812429
448,ardakan,ir,32.310011,54.017474,77,25,0,6.91,1619812382
449,lagoa,pt,39.05,-27.983333,58.69,66,100,6.24,1619812430
450,redlands,us,39.0788889,-108.6350000,82.99,13,1,5.75,1619812430
451,marovoay,mg,-16.1,46.6333333,80.6,94,20,4.76,1619812430
452,shenjiamen,cn,29.957625,122.298017,60.96,92,86,4.05,1619812431
453,eagle pass,us,28.7088889,-100.4991667,73,78,90,13.8,1619812431
454,gazanjyk,tm,39.2430556,55.5169444,72.99,50,42,7.54,1619812431
455,nadym,ru,65.533333,72.516667,30.88,85,100,14.25,1619812418
456,geraldton,au,-28.778971,114.614594,57.2,54,92,12.66,1619812432
457,sitka,us,57.0530556,-135.3300000,46.4,87,90,4.61,1619812432
458,antofagasta,cl,-23.65,-70.4,64.4,68,0,12.66,1619812432
459,baryatino,ru,54.31206,34.520959,47.98,94,100,8.19,1619812432
460,kadykchan,ru,63.033333,146.833333,27.14,95,100,1.63,1619812433
461,shache,cn,38.416667,77.240556,70.61,13,0,7.27,1619812433
462,show low,us,34.2541667,-110.0291667,75.2,14,1,6.91,1619812433
463,ovsyanka,ru,55.9583,92.572,39.2,60,0,2.24,1619812433
464,lubao,cd,-5.366667,25.75,71.55,93,100,3.15,1619812434
465,riyadh,sa,24.653664,46.71522,93.2,11,0,6.91,1619812434
466,lengshuijiang,cn,27.688056,111.429444,67.03,73,48,2.68,1619812434
467,tawang,in,27.583333,91.866667,43.68,83,30,4.65,1619812435
468,manitouwadge,ca,49.133333,-85.8,50,23,20,18.41,1619812435
469,surany,sk,48.0833333,18.1833333,59,72,0,8.05,1619812435
470,prince george,ca,53.916667,-122.766667,55.4,41,1,10.36,1619812435
471,road town,vg,18.4166667,-64.6166667,84.2,61,40,10.36,1619812207
472,galesong,id,-5.3166,119.3661,71.6,94,20,1.14,1619812436
473,abay,kz,49.631111,72.853889,33.8,60,0,6.71,1619812436
474,ucluelet,ca,48.933333,-125.516667,51.01,93,75,9.22,1619812213
475,arrecife,es,28.965706,-13.551378,66.2,59,20,17.27,1619812437
476,akyab,mm,20.15,92.9,80.62,78,0,2.46,1619812437
477,akdepe,tm,42.05,59.4,66.2,34,0,16.11,1619812437
478,comodoro rivadavia,ar,-45.864135,-67.496558,68,45,0,10.36,1619812437
479,coruche,pt,38.959546,-8.525235,55,61,3,4,1619812438
480,batesville,us,35.7697222,-91.6408333,78.01,35,1,6.91,1619812438
481,port hedland,au,-20.312149,118.610588,73.4,83,2,6.91,1619812438
482,la paz,mx,24.166667,-110.3,87.01,13,1,16.11,1619812199
483,malko tarnovo,bg,41.9833333,27.5333333,60.8,77,0,10.36,1619812438
484,ambilobe,mg,-13.2,49.05,74.32,94,21,2.28,1619812439
485,sakakah,sa,29.969742,40.206414,87.8,12,0,3.44,1619812439
486,wanaka,nz,-44.7,169.15,41.99,89,20,1.57,1619812190
487,tungkang,tw,22.4647222,120.4494444,75,83,40,3.44,1619812439
488,cortez,us,37.3488889,-108.5852778,75.2,16,1,10.36,1619812440
489,denpasar,id,-8.65,115.216667,78.8,94,20,2.3,1619812440
490,barsovo,ru,61.166667,73.166667,37.4,93,75,6.71,1619812440
491,jiddah,sa,21.516944,39.219167,89.6,45,0,4.61,1619812441
492,les cayes,ht,18.2,-73.75,82.92,64,71,6.8,1619812441
493,ishigaki,jp,24.344782,124.157167,75.29,91,100,12.44,1619812441
494,rawson,ar,-43.300158,-65.10228,71.1,28,100,3.74,1619812257
495,paamiut,gl,62.0,-49.75,37.33,85,0,6.82,1619812441
496,wamba,cd,2.15,28,68.41,99,100,3.62,1619812442
497,ust-kuyga,ru,70.016667,135.6,29.68,91,98,3.04,1619812442
498,monte alegre de minas,br,-18.866667,-48.866667,75.2,57,40,12.66,1619812443
499,bereda,so,11.85,51.05,81.63,77,100,8.84,1619812443
